{"markers":[
{"latitude": "33.972499847412", "site": "Theharboratarchstone.com", "longitude": "-118.452003479"},
{"latitude": "26.640300750732", "site": "legacyharbourmarina.com", "longitude": "-81.875602722168"},
{"latitude": "39.014999389648", "site": "hinckleyyachts.com", "longitude": "-76.431701660156"},
{"latitude": "42.696098327637", "name": "Bastia Vieux Port Marina", "longitude": "9.4530601501465"},
{"latitude": "42.708301544189", "name": "Bastia Marina", "longitude": "9.4536104202271"},
{"latitude": "43.117500305176", "name": "Bassin Maravenne", "longitude": "6.2488899230957"},
{"latitude": "50.720600128174", "name": "Bassin Frederic Sauvage", "longitude": "1.6005599498749", "site": "portboulogne.com"},
{"latitude": "47.3464012146", "name": "Bassin De La Saline Marina", "longitude": "-3.1619400978088"},
{"latitude": "42.79940032959", "name": "Barcares Marina", "longitude": "3.0341699123383"},
{"latitude": "42.48030090332", "name": "Banyuls Marina", "longitude": "3.1352798938751", "site": "banyuls-sur-mer.com"},
{"latitude": "43.405300140381", "name": "Bassin De Ferrieres Marina", "longitude": "5.0516700744629"},
{"latitude": "49.669700622559", "name": "Barfleur Marina", "longitude": "-1.2602800130844"},
{"latitude": "43.147201538086", "name": "Bandol lsland Marina", "longitude": "5.7583298683167"},
{"latitude": "47.599700927734", "name": "Baden Marina", "longitude": "-2.8599998950958"},
{"latitude": "43.545299530029", "name": "Avenue Max Dormoy Marina", "longitude": "5.0330600738525"},
{"latitude": "43.127201080322", "name": "Avenue Du Prado Road Marina", "longitude": "5.7783298492432"},
{"latitude": "43.386100769043", "name": "Avenue Du Port Road Marina", "longitude": "4.8058300018311"},
{"latitude": "43.436901092529", "name": "Avenue Henri Fabre Road Marina", "longitude": "5.1941699981689"},
{"latitude": "43.171699523926", "name": "Avenue Des Calanques Road Marina", "longitude": "5.6083297729492"},
{"latitude": "50.060600280762", "name": "Avant Port Belot Yacht Club", "longitude": "1.3741699457169"},
{"latitude": "43.356399536133", "name": "Avenue Du Rove Road Marina", "longitude": "5.2952799797058"},
{"latitude": "47.66189956665", "name": "Auray Marina", "longitude": "-2.9788899421692"},
{"latitude": "47.495601654053", "name": "Arzal Camoel Marina", "longitude": "-2.3761100769043"},
{"latitude": "44.67610168457", "name": "Audenge Marina", "longitude": "-1.0269399881363"},
{"latitude": "48.021099090576", "name": "Audierne Marina", "longitude": "-4.5372200012207"},
{"latitude": "47.492198944092", "name": "Aux Moines Marina", "longitude": "-2.8338899612427"},
{"latitude": "44.658599853516", "name": "Arcachon Marina", "longitude": "-1.1472200155258"},
{"latitude": "42.542198181152", "name": "Argeles Marina", "longitude": "3.0530600547791"},
{"latitude": "43.566101074219", "name": "Aigues Mortes Marina", "longitude": "4.1872200965881"},
{"latitude": "43.357799530029", "name": "Abri Marina", "longitude": "5.3166699409485"},
{"latitude": "48.471698760986", "name": "AberI ldut", "longitude": "-4.75443983078"},
{"latitude": "43.422199249268", "name": "Vieux-Port St-Raphael", "longitude": "6.7655601501465"},
{"latitude": "43.728298187256", "name": "Monaco Cap D'ail Marina", "longitude": "7.4099998474121"},
{"latitude": "41.918899536133", "name": "Ajaccio Port Tino Rossi Marina", "longitude": "8.7411098480225"},
{"latitude": "41.929401397705", "name": "Ajaccio Port Charles Ornano Marina", "longitude": "8.7330598831177"},
{"latitude": "44.743598937988", "name": "Andernos Marina", "longitude": "-1.109719991684"},
{"latitude": "43.549701690674", "name": "Port De Cannes Marina", "longitude": "7.0119400024414"},
{"latitude": "43.524398803711", "name": "Anglet Marina", "longitude": "-1.5055600404739"},
{"latitude": "36.628898620605", "name": "Archangelos", "longitude": "22.876100540161"},
{"latitude": "39.414199829102", "name": "Ano Lefkimi Marina", "longitude": "20.100799560547"},
{"latitude": "38.328300476074", "name": "Antirriou Harbour", "longitude": "21.764200210571"},
{"latitude": "38.340000152588", "name": "Arahovitika Marina", "longitude": "21.845600128174"},
{"latitude": "38.37670135498", "name": "Andikiron Harbour", "longitude": "22.633100509644"},
{"latitude": "39.610801696777", "name": "Anemomilos Marina", "longitude": "19.928100585938"},
{"latitude": "38.359401702881", "name": "AL Aluminium de Grece", "longitude": "22.686899185181", "site": "alhellas.gr"},
{"latitude": "37.48860168457", "name": "Aliki Marina", "longitude": "23.469999313354"},
{"latitude": "37.842800140381", "name": "Alikes Zakinthos Marina", "longitude": "20.772499084473"},
{"latitude": "38.195301055908", "name": "Aliki Harbour", "longitude": "23.048099517822"},
{"latitude": "37.391899108887", "name": "Akra Thinni Marina", "longitude": "23.076099395752"},
{"latitude": "38.156898498535", "name": "Aigosthena-Porto Germeno Harbour", "longitude": "23.221900939941"},
{"latitude": "38.258899688721", "name": "Aiyion Yacht Club", "longitude": "22.096399307251"},
{"latitude": "37.712501525879", "name": "Agistri Marina", "longitude": "23.343900680542"},
{"latitude": "38.180599212646", "name": "Agios Vassilios Harbour", "longitude": "23.141700744629"},
{"latitude": "37.638599395752", "name": "Agios Yeoryios", "longitude": "23.394399642944"},
{"latitude": "38.970001220703", "name": "Agios Thomas Marina", "longitude": "20.785600662231"},
{"latitude": "39.765598297119", "name": "Agios Stefanos Marina", "longitude": "19.946100234985"},
{"latitude": "36.816101074219", "name": "Agios Nikolaos Marina", "longitude": "22.279699325562"},
{"latitude": "39.754398345947", "name": "Agios Stefanos Avliotes Marina", "longitude": "19.635000228882"},
{"latitude": "38.175998687744", "name": "Akratas Harbour", "longitude": "22.317499160767"},
{"latitude": "37.889198303223", "name": "Aias-Salamina Marina", "longitude": "23.482799530029"},
{"latitude": "37.717800140381", "name": "Agios Sostis Marina", "longitude": "20.86669921875"},
{"latitude": "38.368900299072", "name": "Agios Nikolaos Harbour", "longitude": "22.680799484253"},
{"latitude": "36.339698791504", "name": "Agia Patrikia Marina", "longitude": "22.975799560547"},
{"latitude": "38.305000305176", "name": "Agia Evfimia Marina", "longitude": "20.60059928894"},
{"latitude": "0", "name": "Agios Andreas Marina", "longitude": "0"},
{"latitude": "38.994998931885", "name": "Agios Kothra Marina", "longitude": "20.771900177002"},
{"latitude": "38.367500305176", "name": "Aghios Spiridonas Harbour", "longitude": "22.126100540161"},
{"latitude": "37.771900177002", "name": "Aegina Island Harbour", "longitude": "23.47080039978"},
{"latitude": "39.42610168457", "name": "Agios Georgios Marina", "longitude": "19.942499160767"},
{"latitude": "38.311698913574", "name": "Agios Kiriakis Marina", "longitude": "20.466100692749"},
{"latitude": "37.740600585938", "name": "Agia Marina Harbour", "longitude": "23.538299560547"},
{"latitude": "36.865299224854", "name": "Ag Andrea Longa Marina", "longitude": "21.916400909424"},
{"latitude": "36.843898773193", "name": "A Leiktron Marina", "longitude": "22.255300521851"},
{"latitude": "42.926898956299", "name": "Neum Harbour", "longitude": "17.607799530029"},
{"latitude": "42.908599853516", "name": "Neum Crkvice Marina", "longitude": "17.641899108887"},
{"latitude": "41.676700592041", "site": "kingmanyachtcenter.com", "longitude": "-70.61669921875"},
{"latitude": "42.914398193359", "name": "Neum Jazine Marina", "longitude": "17.621700286865"},
{"latitude": "39.14640045166", "site": "atlanticmarinaresort.com", "longitude": "-76.45580291748"},
{"latitude": "50.802200317383", "name": "Birdham Pool Marina", "longitude": "-0.83027797937393"},
{"latitude": "50.693901062012", "name": "Bembridge Marina", "longitude": "-1.108060002327"},
{"latitude": "57.7214012146", "name": "Berneray Harbour", "longitude": "-7.1424999237061"},
{"latitude": "50.68920135498", "name": "Bembridge Boatyard", "longitude": "-1.0966700315475"},
{"latitude": "51.853099822998", "name": "Bedwell Company Boatyard", "longitude": "1.2677799463272"},
{"latitude": "55.550300598145", "name": "Beadnell Harbour", "longitude": "-1.6252800226212"},
{"latitude": "50.692199707031", "name": "Bembridge Sailing Club", "longitude": "-1.0933300256729", "site": "bembridgesailingclub.org/"},
{"latitude": "51.496101379395", "name": "Barrier Yacht Club", "longitude": "0.013611099682748"},
{"latitude": "54.663898468018", "name": "Bangor Marina", "longitude": "-5.6705598831177", "site": "crestnicholsonmarinas.co.u..."},
{"latitude": "51.497200012207", "name": "Barrier Gardens Pier", "longitude": "0.041944399476051"},
{"latitude": "54.152500152588", "name": "Battery Pier Pontoon", "longitude": "-4.477970123291"},
{"latitude": "56.848300933838", "name": "Banavie Basin Marina", "longitude": "-5.0888900756836"},
{"latitude": "57.668434143066", "name": "Banff Marina", "longitude": "-2.5214223861694", "site": "http://banffmarina.com"},
{"latitude": "54.491100311279", "name": "Ballydorn Light Ship", "longitude": "-5.6497201919556", "site": "downcruising.com"},
{"latitude": "54.543300628662", "name": "Ballywalter Quay", "longitude": "-5.4805598258972"},
{"latitude": "54.84939956665", "name": "Ballylumford Harbour", "longitude": "-5.7830600738525"},
{"latitude": "54.483100891113", "name": "Ballyhalbert Pier", "longitude": "-5.43306016922"},
{"latitude": "55.206699371338", "name": "Ballycastle Marina", "longitude": "-6.2366700172424", "site": "ballycastle.free-online.co..."},
{"latitude": "55.466400146484", "name": "Ayr Yacht & Cruising Dock", "longitude": "-4.6355600357056", "site": "aycc.co.uk"},
{"latitude": "51.506401062012", "name": "Bankside Pier", "longitude": "-0.096111096441746"},
{"latitude": "55.466400146484", "name": "Ayr Yacht and Cruising Club", "longitude": "-4.636390209198", "site": "aycc.co.uk"},
{"latitude": "57.754699707031", "name": "Balintore Harbour", "longitude": "-3.9088900089264"},
{"latitude": "57.567199707031", "name": "Avoch Harbour", "longitude": "-4.1672201156616"},
{"latitude": "55.104698181152", "name": "Ballantrae Pier", "longitude": "-5.0097198486328"},
{"latitude": "56.012798309326", "name": "Ardrishaig Basin Marina", "longitude": "-5.448609828949"},
{"latitude": "50.805599212646", "name": "Arun Yacht Club", "longitude": "-0.54472202062607", "site": "arunyc.co.uk"},
{"latitude": "56.181098937988", "name": "Ardfern Yacht Centre", "longitude": "-5.549439907074"},
{"latitude": "56.556400299072", "name": "Arbroath Marina", "longitude": "-2.5827798843384"},
{"latitude": "54.071899414062", "name": "Alfred Pier", "longitude": "-4.7302799224854"},
{"latitude": "56.220798492432", "name": "Anstruther Harbour", "longitude": "-2.6961100101471"},
{"latitude": "51.477798461914", "name": "Albert Wharf", "longitude": "-0.17972199618816"},
{"latitude": "55.336101531982", "name": "Amble Marina", "longitude": "-1.586109995842", "site": "amble.co.uk"},
{"latitude": "53.759399414062", "name": "Albert Edward Dock Pontoon", "longitude": "-2.7391700744629"},
{"latitude": "53.40060043335", "name": "Albert Dock", "longitude": "-2.9938900470734", "site": "albertdock.com"},
{"latitude": "56.051399230957", "name": "Aberdour Harbour", "longitude": "-3.2947199344635"},
{"latitude": "44.081100463867", "name": "Base Nautica Del Fezzano Marina", "longitude": "9.8272199630737"},
{"latitude": "41.129398345947", "name": "Bari Darsena Vecchia Marina", "longitude": "16.865600585938"},
{"latitude": "45.682201385498", "name": "Barcola Marina", "longitude": "13.751399993896"},
{"latitude": "41.333599090576", "name": "Barletta Molo Di Tramontana Ramp", "longitude": "16.289699554443"},
{"latitude": "41.125598907471", "name": "Bari Molo San Nicola Marina", "longitude": "16.866399765015"},
{"latitude": "38.052799224854", "name": "Balestrate Marina", "longitude": "13.00389957428"},
{"latitude": "40.996101379395", "name": "Baia Caddinas Marina", "longitude": "9.6030597686768"},
{"latitude": "41.32559967041", "name": "Barletta Darsena Pescatori Marina", "longitude": "16.28689956665"},
{"latitude": "36.979698181152", "name": "Baia di Ognina Marina", "longitude": "15.257800102234"},
{"latitude": "45.647201538086", "name": "Bacino Sacchetta Marina", "longitude": "13.75920009613"},
{"latitude": "44.306400299072", "name": "Autorita Portuale di Savona", "longitude": "8.4866695404053", "site": "porto.sv.it/"},
{"latitude": "44.408100128174", "name": "Autorita' Portuale Di Genova", "longitude": "8.9116697311401", "site": "porto.genova.it/main.jsp?h..."},
{"latitude": "40.672199249268", "name": "Autorita Portuale di Salerno", "longitude": "14.76609992981", "site": "portosalerno.it/10.02.html"},
{"latitude": "38.299198150635", "name": "Bagnara Calabra Marina", "longitude": "15.814700126648"},
{"latitude": "39.211101531982", "name": "Autorita Portuale di Cagliari", "longitude": "9.1163902282715", "site": "porto.cagliari.it/php/inde..."},
{"latitude": "36.898300170898", "name": "Avola Marina", "longitude": "15.14640045166"},
{"latitude": "43.830299377441", "name": "Arma Di Taggia Marina", "longitude": "7.8577799797058"},
{"latitude": "44.388599395752", "name": "Arenzano Marina", "longitude": "8.6819400787354"},
{"latitude": "43.518100738525", "name": "Ardenza Marina", "longitude": "10.315600395203"},
{"latitude": "43.613899230957", "name": "Autorita Portuale di Ancona", "longitude": "13.493900299072", "site": "autoritaportuale.ancona.it/"},
{"latitude": "38.152500152588", "name": "Arenella Marina", "longitude": "13.376899719238"},
{"latitude": "43.495800018311", "name": "Antignano Marina", "longitude": "10.323100090027"},
{"latitude": "45.740299224854", "name": "Aurisina Marina", "longitude": "13.670000076294"},
{"latitude": "43.614700317383", "name": "Ancona Porto Commerciale Marina", "longitude": "13.504400253296"},
{"latitude": "38.183101654053", "name": "Addaura Marina", "longitude": "13.350600242615"},
{"latitude": "37.561901092529", "name": "Acitrezza Marina", "longitude": "15.160300254822"},
{"latitude": "40.63330078125", "name": "Amalfi Marina", "longitude": "14.601099967957"},
{"latitude": "42.503898620605", "name": "Albenga Marina", "longitude": "11.197199821472"},
{"latitude": "37.564399719238", "name": "Aci Castello Marina", "longitude": "15.16250038147"},
{"latitude": "44.30419921875", "name": "Portofino Marina", "longitude": "9.2138900756836"},
{"latitude": "42.80530166626", "name": "Marina di Punta Ala", "longitude": "10.735300064087", "site": "marinadipuntaala.com/"},
{"latitude": "40.22029876709", "name": "Agnone San Nicola Marina", "longitude": "14.985300064087"},
{"latitude": "43.951099395752", "name": "Andora Marina", "longitude": "8.1541700363159"},
{"latitude": "40.176898956299", "name": "Acciaroli Marina", "longitude": "15.026399612427"},
{"latitude": "40.35359954834", "name": "Agropoli Marina", "longitude": "14.984199523926"},
{"latitude": "25.959199905396", "site": "turnberry.com", "longitude": "-80.127799987793"},
{"latitude": "53.872501373291", "name": "Cuxhaven Yacht Club Marina", "longitude": "8.7052803039551"},
{"latitude": "54.584999084473", "name": "Camping Lindaunis Marina", "longitude": "9.810830116272"},
{"latitude": "54.117500305176", "name": "Dalben 28 Marina", "longitude": "12.097800254822"},
{"latitude": "53.866901397705", "name": "Cuxhaven Marina", "longitude": "8.7055597305298"},
{"latitude": "54.412799835205", "name": "Burgtiefe Yacht Club", "longitude": "11.193300247192"},
{"latitude": "53.865001678467", "name": "Cuxhaven Boatyard", "longitude": "8.7044401168823"},
{"latitude": "54.508098602295", "name": "Calissen Strasse Road Marina", "longitude": "9.5486097335815"},
{"latitude": "54.09220123291", "name": "City Port Marina", "longitude": "12.139399528503"},
{"latitude": "54.420299530029", "name": "Burgstaaken Yacht Port", "longitude": "11.191100120544"},
{"latitude": "53.876899719238", "name": "Cuxhaven Yacht Club", "longitude": "8.6999998092651"},
{"latitude": "54.122501373291", "name": "Busum Yacht Harbour", "longitude": "8.8661098480225"},
{"latitude": "54.412799835205", "name": "Burgtiefe Sport Boat Hafen", "longitude": "11.200300216675"},
{"latitude": "54.384399414062", "name": "Britischer Yachtclub Kiel", "longitude": "10.16250038147"},
{"latitude": "53.501098632812", "name": "Bremerhaven WVW Marina", "longitude": "8.5802803039551"},
{"latitude": "54.49169921875", "name": "Borgwedel South Marina", "longitude": "9.6661100387573"},
{"latitude": "53.894199371338", "name": "Brunsbuttel Alter Hafen", "longitude": "9.1263904571533"},
{"latitude": "54.829200744629", "name": "Bockholmwik Marina", "longitude": "9.6158304214478"},
{"latitude": "53.510799407959", "name": "Bremerhaven North Yacht Club", "longitude": "8.5791702270508"},
{"latitude": "54.336700439453", "name": "Blucherhafen Marina", "longitude": "10.159399986267"},
{"latitude": "54.496898651123", "name": "Borgwedel North Marina", "longitude": "9.6680603027344"},
{"latitude": "54.356899261475", "name": "Binnenhafen Marina", "longitude": "11.072500228882"},
{"latitude": "53.877799987793", "name": "Beidenfleth South Sport Boat Harbor", "longitude": "9.4208297729492"},
{"latitude": "54.401901245117", "name": "Beelitz Marina", "longitude": "11.119199752808"},
{"latitude": "53.80530166626", "name": "Aue New House Oste Marina", "longitude": "9.0333299636841"},
{"latitude": "53.881401062012", "name": "Beidenfleth North Sport Boat Harbour", "longitude": "9.4166698455811"},
{"latitude": "54.091701507568", "name": "Ancora Marina", "longitude": "10.802499771118"},
{"latitude": "54.093601226807", "name": "Ancora Gastehafen Marina", "longitude": "10.805299758911"},
{"latitude": "54.523101806641", "name": "An Der Wees Marina", "longitude": "9.7266702651978"},
{"latitude": "54.631099700928", "name": "Amrum-Hafen Marina", "longitude": "8.3819398880005"},
{"latitude": "54.095001220703", "name": "Ancora Werft Marina", "longitude": "10.804200172424"},
{"latitude": "53.836898803711", "name": "Altenbruch Marina", "longitude": "8.7691698074341"},
{"latitude": "53.734199523926", "name": "Ackerhof Marina", "longitude": "14.049200057983"},
{"latitude": "54.692199707031", "name": "Achtern Diek Fishing Harbor", "longitude": "8.5725002288818"},
{"latitude": "54.511100769043", "name": "Am Hafen Road Marina", "longitude": "9.5683298110962"},
{"latitude": "54.664199829102", "name": "Bauhof Boat Yard", "longitude": "9.9375"},
{"latitude": "27.976800918579", "site": "http://myclearwatermarina.com", "longitude": "-82.827514648438"},
{"latitude": "51.33219909668", "name": "Royal Belgian Sailing Club Zeebrugge", "longitude": "3.200560092926"},
{"latitude": "51.228630065918", "name": "Zilvermeerhaven Port Aventura", "longitude": "5.1726698875427", "site": "zilvermeerhaven.be"},
{"latitude": "51.310001373291", "name": "Vlaamse Vereniging Voor Watersport", "longitude": "3.1177799701691", "site": "vvwblankenberge.be/"},
{"latitude": "51.22439956665", "name": "Royal Yacht Club North", "longitude": "2.939169883728"},
{"latitude": "51.233898162842", "name": "Royal North Sea Yacht Club", "longitude": "2.924439907074"},
{"latitude": "51.312801361084", "name": "Scarphout Blankenberge Yacht Club", "longitude": "3.1211099624634"},
{"latitude": "51.140701293945", "name": "VVW Nieuwpoort", "longitude": "2.7518301010132", "site": "vvwnieuwpoort.be"},
{"latitude": "51.23030090332", "name": "Mercator Lock", "longitude": "2.9238901138306"},
{"latitude": "51.311401367188", "name": "Vrije North Sailers Yacht Club", "longitude": "3.1211099624634"},
{"latitude": "51.310298919678", "name": "Nouvelle Marina", "longitude": "3.1211099624634"},
{"latitude": "51.303901672363", "name": "Lillo Yacht Haven", "longitude": "4.289999961853"},
{"latitude": "51.101100921631", "name": "Herenlaak Marina", "longitude": "5.8175001144409", "site": "marec.be"},
{"latitude": "51.13219833374", "name": "VVW Westhoek Sparrbekken Basin Marina", "longitude": "2.7669401168823", "site": "vvw-westhoek.be/"},
{"latitude": "51.226898193359", "name": "Mercator Marina", "longitude": "2.921669960022", "site": "mercatormarina.be"},
{"latitude": "51.139999389648", "name": "Royal Yacht Club Nieuwport", "longitude": "2.7408299446106"},
{"latitude": "51.136901855469", "name": "WSKLuM", "longitude": "2.7486100196838", "site": "wsklum.be"},
{"latitude": "51.23030090332", "name": "Jachthaven Antwerpen Linkeroever", "longitude": "4.3916702270508"},
{"latitude": "51.137798309326", "name": "Koninklijke Yacht Club Nieuwpoort", "longitude": "2.7381699085236", "site": "kycn.be"},
{"latitude": "51.309200286865", "name": "Blankenberge Marina", "longitude": "3.1186099052429", "site": "vvwblankenberge.be/"},
{"latitude": "51.309398651123", "name": "Doel Yacht Haven", "longitude": "4.2669401168823"},
{"latitude": "51.229999542236", "name": "Jachthaven Willemdok", "longitude": "4.4074997901917", "site": "jachthaven-antwerpen.be"},
{"latitude": "51.250598907471", "name": "Antwerp Skipper School", "longitude": "4.2983298301697"},
{"latitude": "27.512500762939", "site": "http://regattapointemarina.com", "longitude": "-82.573196411133"},
{"latitude": "18.475799560547", "name": "Club Nautico Arecibo", "longitude": "-66.698097229004"},
{"latitude": "40.062801361084", "site": "greencovemarina.com", "longitude": "-74.126899719238"},
{"latitude": "12.001700401306", "name": "Clarkes Court Bay Marina", "longitude": "-61.745300292969", "site": "clarkescourtbaymarina.com"},
{"latitude": "10.679699897766", "name": "Claxon Bay Marine", "longitude": "-61.567501068115"},
{"latitude": "18.098600387573", "name": "Club Deportivo", "longitude": "-67.192497253418"},
{"latitude": "45.102500915527", "site": "nesteggmarine.com", "longitude": "-87.625602722168"},
{"latitude": "18.333099365234", "name": "Cayo Obispo Yacht Club", "longitude": "-65.621101379395"},
{"latitude": "18.338899612427", "name": "Cayo Obispo Marina", "longitude": "-65.616096496582"},
{"latitude": "18.428600311279", "name": "Clipper Marina", "longitude": "-64.609397888184"},
{"latitude": "18.391962051392", "name": "Casa de Campo Marina", "longitude": "-68.899360656738", "site": "marinacasadecampo.com"},
{"latitude": "12.454700469971", "name": "Carriacou Yacht Club", "longitude": "-61.48690032959"},
{"latitude": "17.022800445557", "name": "Catamaran Club Hotel Marina", "longitude": "-61.77560043335"},
{"latitude": "14.612199783325", "name": "Caren Antilles Boatyard", "longitude": "-61.067199707031"},
{"latitude": "18.057199478149", "name": "Captain Oliver's Marina", "longitude": "-63.014999389648", "site": "captainolivers.com"},
{"latitude": "18.331100463867", "name": "Canak Bay Shipyard", "longitude": "-64.793601989746"},
{"latitude": "18.454700469971", "name": "Cangrejos Yacht Club", "longitude": "-65.993598937988", "site": "cangrejosyachtclub.com"},
{"latitude": "18.483600616455", "name": "Caribatik Marina", "longitude": "-77.631698608398"},
{"latitude": "14.472800254822", "name": "Caren Antilles Marina", "longitude": "-60.880298614502"},
{"latitude": "18.180299758911", "name": "Boundbrook Wharf", "longitude": "-76.457801818848"},
{"latitude": "17.942199707031", "name": "Cana Gorda State Park", "longitude": "-66.866096496582"},
{"latitude": "13.115599632263", "name": "Careenage Marina", "longitude": "-59.618598937988"},
{"latitude": "18.016399383545", "name": "Boqueron Yacht Club", "longitude": "-67.175796508789"},
{"latitude": "18.017799377441", "name": "Bobby's Marina", "longitude": "-63.043598175049", "site": "bobbysmarina.com"},
{"latitude": "21.761100769043", "name": "Caicos Marina and Shipyard", "longitude": "-72.175003051758", "site": "caicosmarina.com"},
{"latitude": "12.599200248718", "name": "Bougainvilla Wind & Sea Marina", "longitude": "-61.416400909424", "site": "grenadines.net/union/winda..."},
{"latitude": "18.016399383545", "name": "Boqueron Bay Marina", "longitude": "-67.183097839355"},
{"latitude": "18.493600845337", "name": "Biras Creek Marina", "longitude": "-64.353302001953", "site": "birascreek.com"},
{"latitude": "18.499200820923", "name": "Bitter End Yacht Club", "longitude": "-64.354202270508", "site": "beyc.com"},
{"latitude": "17.009399414062", "name": "Antigua Yacht Club", "longitude": "-61.770301818848", "site": "aycmarina.com"},
{"latitude": "12.480492591858", "name": "Aruba Nautical Club", "longitude": "-70.006774902344"},
{"latitude": "18.322200775146", "name": "American Yacht Harbor Marina", "longitude": "-64.849403381348", "site": "igy-americanyachtharbor.com"},
{"latitude": "13.01309967041", "name": "Bequia Marina", "longitude": "-61.236400604248"},
{"latitude": "13.127499580383", "name": "Barefoot Yacht Charters Marina", "longitude": "-61.192798614502", "site": "barefootyachts.com"},
{"latitude": "17.00779914856", "name": "Antigua Slipway", "longitude": "-61.762199401855", "site": "antiguaslipway.com"},
{"latitude": "18.458299636841", "name": "Aguadilla Town Docks", "longitude": "-67.165298461914"},
{"latitude": "19.302824020386", "site": "barcadere.com", "longitude": "-81.358764648438"},
{"latitude": "17.915800094604", "name": "Belize Yacht Club Marina", "longitude": "-87.989196777344", "site": "belizeyachtclub.com/"},
{"latitude": "17.466608047485", "name": "Cucumber Beach Marina", "longitude": "-88.247337341309", "site": "http://oldbelize.com"},
{"latitude": "38.685298919678", "site": "campbellsboatyards.com", "longitude": "-76.168601989746"},
{"latitude": "48.256401062012", "name": "Anse A Fullum Harbour", "longitude": "-64.751403808594"},
{"latitude": "38.692501068115", "site": "hinckleyyachts.com", "longitude": "-76.171096801758"},
{"latitude": "48.571399688721", "name": "Angler's Anchorage Marina", "longitude": "-123.46299743652"},
{"latitude": "50.062198638916", "name": "April Point Marina", "longitude": "-125.2259979248"},
{"latitude": "26.836399078369", "site": "opch.com", "longitude": "-80.058601379395"},
{"latitude": "49.184700012207", "name": "Anchorage Marina", "longitude": "-123.94599914551"},
{"latitude": "44.348598480225", "name": "Anchor Marine", "longitude": "-76.092498779297"},
{"latitude": "44.205001831055", "name": "Alpine Resort", "longitude": "-78.096900939941"},
{"latitude": "45.015800476074", "name": "Allport Marina", "longitude": "-79.381896972656", "site": "allportmarina.com"},
{"latitude": "44.379398345947", "name": "Andress Boat Works", "longitude": "-75.931701660156", "site": "1000island.net"},
{"latitude": "50.582801818848", "name": "Alert Bay Boat Harbour", "longitude": "-126.93000030518"},
{"latitude": "39.284999847412", "site": "baltimoremarinecenter.com", "longitude": "-76.605796813965"},
{"latitude": "43.633598327637", "name": "Alexandria Yacht Club", "longitude": "-79.400001525879"},
{"latitude": "44.664398193359", "name": "Alderney Marina", "longitude": "-63.571399688721"},
{"latitude": "44.746398925781", "name": "Alberts Cove Marina", "longitude": "-80.118301391602"},
{"latitude": "46.309200286865", "name": "Alder Point Harbour", "longitude": "-60.2839012146"},
{"latitude": "49.281898498535", "name": "Ahousat General Store", "longitude": "-126.07099914551"},
{"latitude": "49.192199707031", "name": "Airport Yacht Club", "longitude": "-123.1370010376", "site": "vancouvermarina.com/ayc.htm"},
{"latitude": "49.718898773193", "name": "Agamemnon Bay Marina", "longitude": "-124.05599975586"},
{"latitude": "43.203899383545", "name": "Albert's Marina", "longitude": "-79.264999389648"},
{"latitude": "42.19889831543", "name": "Acali Place", "longitude": "-83.099403381348"},
{"latitude": "48.851898193359", "name": "Active Pass Auto & Marine", "longitude": "-123.30200195312"},
{"latitude": "46.438899993896", "name": "Abrams Village Harbour", "longitude": "-64.113098144531"},
{"latitude": "44.874698638916", "name": "Admiral's Marina Inc", "longitude": "-79.818298339844"},
{"latitude": "43.662799835205", "name": "Abbotts Harbour Marina", "longitude": "-65.82250213623"},
{"latitude": "42.339199066162", "name": "Abars Marina & Restaurant", "longitude": "-82.946899414062"},
{"latitude": "45.018901824951", "name": "Adams Marina", "longitude": "-74.592796325684", "site": "adamsmarina.ca"},
{"latitude": "45.920600891113", "name": "A & L Seafood Wharf", "longitude": "-59.968101501465"},
{"latitude": "44.872501373291", "name": "A & A Services Marine Contracting Ltd", "longitude": "-79.813301086426"},
{"latitude": "46.432201385498", "name": "Red Head Harbour", "longitude": "-62.712501525879"},
{"latitude": "44.218601226807", "name": "A. F. Theriault & Son Ltd.", "longitude": "-66.14330291748", "site": "aftheriault.com"},
{"latitude": "46.794700622559", "name": "Alberton Harbour", "longitude": "-64.05940246582"},
{"latitude": "46.231399536133", "name": "Quartermaster Marina", "longitude": "-63.122200012207"},
{"latitude": "44.794399261475", "name": "Abriel Fisheries Wharf Marina", "longitude": "-62.674701690674"},
{"latitude": "46.697799682617", "name": "Club Nautique Vauquelin Marina", "longitude": "-71.57250213623", "site": "marinadeneuville.org/"},
{"latitude": "44.746700286865", "name": "Annapolis Royal Wharf", "longitude": "-65.518898010254"},
{"latitude": "38.242198944092", "site": "http://monroebaymarina.com", "longitude": "-76.96720123291"},
{"latitude": "46.879699707031", "name": "Miminegash Harbour", "longitude": "-64.230003356934"},
{"latitude": "32.0339012146", "site": "hinckleyyachts.com", "longitude": "-81.045799255371"},
{"latitude": "46.230598449707", "name": "Charlottetown Yacht Club", "longitude": "-63.124698638916"},
{"latitude": "32.804698944092", "site": "isleofpalmsmarina.com", "longitude": "-79.758903503418"},
{"latitude": "41.584201812744", "site": "hinckleyyachts.com/Service...", "longitude": "-71.286399841309"},
{"latitude": "44.376399993896", "name": "Baric Draga Marina", "longitude": "15.268099784851"},
{"latitude": "44.967800140381", "name": "Baska Harbour", "longitude": "14.761099815369"},
{"latitude": "44.729400634766", "name": "Barbat Na Rabu Harbour", "longitude": "14.807200431824"},
{"latitude": "45.27970123291", "name": "Bakarac Harbour", "longitude": "14.580800056458"},
{"latitude": "44.736400604248", "name": "Barbat Harbour", "longitude": "14.795299530029"},
{"latitude": "44.493301391602", "name": "Balvanida Marina", "longitude": "14.503100395203"},
{"latitude": "45.303298950195", "name": "Bakar Marina", "longitude": "14.536700248718"},
{"latitude": "43.970600128174", "name": "Barotul Harbour", "longitude": "15.354999542236"},
{"latitude": "44.527801513672", "name": "Baldarka Marina", "longitude": "14.481900215149"},
{"latitude": "42.959701538086", "name": "Banja Harbour", "longitude": "17.118299484253"},
{"latitude": "45.303100585938", "name": "Bakar Harbour", "longitude": "14.532799720764"},
{"latitude": "44.001098632812", "name": "Banj Harbour", "longitude": "15.296699523926"},
{"latitude": "42.949401855469", "name": "Badija Harbour", "longitude": "17.16250038147"},
{"latitude": "43.465801239014", "name": "Bajnice Harbour", "longitude": "16.584999084473"},
{"latitude": "43.084701538086", "name": "Bacina Marina", "longitude": "17.362800598145"},
{"latitude": "42.733100891113", "name": "Badanj Yacht Harbour", "longitude": "17.596399307251"},
{"latitude": "43.860801696777", "name": "ArtinaI Marina", "longitude": "15.500800132751"},
{"latitude": "44.566398620605", "name": "Artaturi Marina", "longitude": "14.408900260925"},
{"latitude": "43.844398498535", "name": "Arta MaliI Marina", "longitude": "15.552800178528"},
{"latitude": "43.875", "name": "Babin Bok Marina", "longitude": "15.304200172424"},
{"latitude": "43.798599243164", "name": "Artic Marina", "longitude": "15.649399757385"},
{"latitude": "45.4375", "name": "A.C.I. Umag Marina", "longitude": "13.517200469971"},
{"latitude": "44.237201690674", "name": "Aenona Harbour", "longitude": "15.148300170898"},
{"latitude": "44.803100585938", "name": "A.C.I. Supetarska Draga Marina", "longitude": "14.725299835205"},
{"latitude": "43.505001068115", "name": "A.C.I. Split Marina", "longitude": "16.429399490356", "site": "aci-club.hr/aci.htm"},
{"latitude": "45.076400756836", "name": "A.C.I. Rovinj Marina", "longitude": "13.634699821472"},
{"latitude": "44.866100311279", "name": "A.C.I. Pula Marina", "longitude": "13.846699714661"},
{"latitude": "43.881698608398", "name": "A.C.I. Marina Zut", "longitude": "15.288599967957"},
{"latitude": "43.760799407959", "name": "A.C.I. Piskera Marina", "longitude": "15.342200279236"},
{"latitude": "44.471099853516", "name": "A.C.I. Simuni Marina", "longitude": "14.955599784851"},
{"latitude": "45.313598632812", "name": "A.C.I. Opatija Marina", "longitude": "14.290800094604"},
{"latitude": "44.948299407959", "name": "A.C.I. Cres Marina", "longitude": "14.41609954834", "site": "aci-club.hr/aci.htm"},
{"latitude": "42.670299530029", "name": "A.C.I. Marina Dubrovnik", "longitude": "18.124200820923"},
{"latitude": "44.758098602295", "name": "A.C.I. Rab Marina", "longitude": "14.758600234985"},
{"latitude": "44.822799682617", "name": "A.C.I. Pomer Marina", "longitude": "13.901100158691"},
{"latitude": "35.083400726318", "site": "riverdunes.com", "longitude": "-76.602798461914"},
{"latitude": "38.687801361084", "site": "campbellsboatyards.com", "longitude": "-76.165802001953"},
{"latitude": "29.206899642944", "site": "halifaxharbormarina.com", "longitude": "-81.014999389648"},
{"latitude": "62.946701049805", "name": "Bergo Marina", "longitude": "21.178600311279"},
{"latitude": "60.110298156738", "name": "Bergo Byviken Marina", "longitude": "24.701099395752"},
{"latitude": "44.268600463867", "site": "hinckleyyachts.com", "longitude": "-68.306701660156"},
{"latitude": "60.055801391602", "name": "Berghamn Yacht Harbour", "longitude": "21.805299758911"},
{"latitude": "63.746101379395", "name": "Bastuhamnen South Marina", "longitude": "22.700000762939"},
{"latitude": "60.088901519775", "name": "Batvik Yacht Harbour", "longitude": "24.342800140381"},
{"latitude": "11.241456031799", "name": "Marina Santa Marta IGY", "longitude": "-74.215934753418", "site": "igy-marinasantamarta.com/en"},
{"latitude": "63.749401092529", "name": "Bastuhamnen Marina", "longitude": "22.699699401855"},
{"latitude": "60.093101501465", "name": "Batvik Marina", "longitude": "24.341100692749"},
{"latitude": "20.829299926758", "site": "elcid.com", "longitude": "-86.889503479004"},
{"latitude": "59.977199554443", "name": "Barosund Orslandet Yacht Harbor", "longitude": "23.880599975586"},
{"latitude": "59.9714012146", "name": "Barolandet Yacht Harbour", "longitude": "23.849199295044"},
{"latitude": "63.563899993896", "name": "Badan Yacht Harbour", "longitude": "22.467199325562"},
{"latitude": "60.303901672363", "name": "Baro Yacht Harbour", "longitude": "20.745300292969"},
{"latitude": "60.442501068115", "name": "Aurajoki Turku Marina", "longitude": "22.249399185181"},
{"latitude": "61.020301818848", "name": "Aulanko Marina", "longitude": "24.442199707031"},
{"latitude": "63.564701080322", "name": "Badan Marina", "longitude": "22.460599899292"},
{"latitude": "59.975601196289", "name": "Barosund Barolandet Yacht Harbour", "longitude": "23.875799179077"},
{"latitude": "60.445598602295", "name": "Artukainen Marina", "longitude": "22.184999465942"},
{"latitude": "61.266399383545", "name": "Apianranta Valkeakoski Marina", "longitude": "24.047500610352"},
{"latitude": "63.564998626709", "name": "Badan Harbour", "longitude": "22.464399337769"},
{"latitude": "61.67919921875", "name": "Anttoora Marina", "longitude": "21.431100845337"},
{"latitude": "59.951400756836", "name": "Aspo Yacht Harbour", "longitude": "21.614999771118"},
{"latitude": "61.676700592041", "name": "Anttoora Yacht Harbour", "longitude": "21.442499160767"},
{"latitude": "61.584201812744", "name": "Anttola Marina", "longitude": "27.650800704956"},
{"latitude": "62.286399841309", "name": "Antilante Yacht Harbour", "longitude": "21.345300674438"},
{"latitude": "62.968601226807", "name": "Aminne Marina", "longitude": "21.487800598145"},
{"latitude": "64.280296325684", "name": "Amma Marina", "longitude": "23.916700363159"},
{"latitude": "60.795799255371", "name": "Aquarius Hotel Marina", "longitude": "21.396900177002", "site": "hotelliaquarius.fi/"},
{"latitude": "65.672500610352", "name": "Ajos Marina", "longitude": "24.515600204468"},
{"latitude": "62.174999237061", "name": "Aijanniemi Teirlahti Yacht Harbour", "longitude": "25.864999771118"},
{"latitude": "60.369998931885", "name": "Ahteentaka Yacht Harbour", "longitude": "21.869400024414"},
{"latitude": "61.432498931885", "name": "Lankoorinnokka Yacht Harbour", "longitude": "21.460300445557"},
{"latitude": "59.977798461914", "name": "Algsjo Marina", "longitude": "23.918300628662"},
{"latitude": "62.286399841309", "name": "Antila Yacht Harbour", "longitude": "21.346099853516"},
{"latitude": "63.721099853516", "name": "Adontie Marina", "longitude": "22.62859916687"},
{"latitude": "62.969398498535", "name": "Aminne Yacht Harbour", "longitude": "21.493900299072"},
{"latitude": "8.621470451355", "name": "Fish Hook Marina & Lodge", "longitude": "-83.151802062988", "site": "fishhookmarina.com"},
{"latitude": "60.251098632812", "name": "Airisto Stormalo Holiday Club Marina", "longitude": "22.111099243164", "site": "holidayclub.fi"},
{"latitude": "25.944999694824", "site": "williamsislandmarina.com", "longitude": "-80.135299682617"},
{"latitude": "41.627498626709", "site": "piratecovemarina.net", "longitude": "-71.216102600098"},
{"latitude": "37.05419921875", "site": "saltpondsmarinaresort.com", "longitude": "-76.285003662109"},
{"latitude": "38.972499847412", "site": "amcyc.com", "longitude": "-76.477203369141"},
{"latitude": "30.284200668335", "site": "orangebeachmarina.com", "longitude": "-87.562797546387"},
{"latitude": "30.151899337769", "site": "pcmarina.com", "longitude": "-85.663902282715"},
{"latitude": "55.296699523926", "name": "Avernakke Terminal", "longitude": "10.788900375366"},
{"latitude": "26.648599624634", "site": "cityftmyers.com/Activities...", "longitude": "-81.868301391602"},
{"latitude": "54.944400787354", "name": "Augustenborg Sail Club", "longitude": "9.8725004196167"},
{"latitude": "54.934398651123", "name": "Augustenborg Fish Camp", "longitude": "9.8336095809937"},
{"latitude": "54.942798614502", "name": "Augustenborg Yacht Harbor", "longitude": "9.875", "site": "augustenborg-yachthavn.dk"},
{"latitude": "40.039199829102", "site": "hinckleyyachts.com", "longitude": "-74.058296203613"},
{"latitude": "57.144401550293", "name": "", "longitude": "10.426899909973"},
{"latitude": "57.143600463867", "name": "", "longitude": "10.425800323486"},
{"latitude": "57.037799835205", "name": "Attrup Marina", "longitude": "9.4583301544189", "site": "attruphavn.dk"},
{"latitude": "57.144199371338", "name": "", "longitude": "10.424699783325"},
{"latitude": "55.196701049805", "name": "", "longitude": "11.745800018311"},
{"latitude": "55.051700592041", "name": "Arnager Marina", "longitude": "14.780799865723"},
{"latitude": "56.716899871826", "name": "Anholt Havn", "longitude": "11.510000228882"},
{"latitude": "56.716899871826", "name": "Anholt Marina", "longitude": "11.511099815369"},
{"latitude": "55.266101837158", "name": "Assens Marina", "longitude": "9.8863897323608"},
{"latitude": "54.771099090576", "name": "Anne Fisk Marina", "longitude": "11.86190032959"},
{"latitude": "56.706699371338", "name": "Als Odde", "longitude": "10.330800056458"},
{"latitude": "56.996700286865", "name": "Aggersund Haven", "longitude": "9.2944402694702"},
{"latitude": "55.290599822998", "name": "Allinge Haven", "longitude": "14.796899795532"},
{"latitude": "57.004699707031", "name": "Amtoft Marina", "longitude": "8.9399995803833"},
{"latitude": "55.270000457764", "name": "Allinge Haven Harbor", "longitude": "14.819999694824"},
{"latitude": "55.210800170898", "name": "Agersoe Marina", "longitude": "11.197799682617"},
{"latitude": "55.209999084473", "name": "Agers Haven", "longitude": "11.197500228882"},
{"latitude": "56.777801513672", "name": "Agger Haven", "longitude": "8.2552795410156"},
{"latitude": "55.260799407959", "name": "Aaroesund Haven", "longitude": "9.7097196578979"},
{"latitude": "56.991901397705", "name": "Aggersund Kalk", "longitude": "9.2891702651978"},
{"latitude": "56.16609954834", "name": "Aarhus Marina", "longitude": "10.221099853516"},
{"latitude": "57.046699523926", "name": "", "longitude": "9.9408302307129", "site": "aalborghavn.dk/"},
{"latitude": "55.259700775146", "name": "Aaroe Haven", "longitude": "9.7288904190063"},
{"latitude": "57.058300018311", "name": "", "longitude": "10.052200317383", "site": "aalborghavn.dk/"},
{"latitude": "55.199199676514", "name": "Agernaes Marina", "longitude": "9.9852800369263"},
{"latitude": "57.055801391602", "name": "", "longitude": "9.898889541626", "site": "sejlklubbenlimfjorden.dk/"},
{"latitude": "57.059398651123", "name": "Aalborg Skudehavn", "longitude": "9.8986101150513"},
{"latitude": "57.051399230957", "name": "", "longitude": "9.9222202301025", "site": "aalborghavn.dk/"},
{"latitude": "55.044998168945", "name": "Aabenraa Haven", "longitude": "9.4277801513672"},
{"latitude": "57.063098907471", "name": "Aalb Portland", "longitude": "9.9733295440674"},
{"latitude": "55.038299560547", "name": "Aabenraa Sejl Club", "longitude": "9.4163904190063", "site": "aabenraa-sejlclub.dk"},
{"latitude": "34.715801239014", "longitude": "-76.663299560547"},
{"latitude": "41.28279876709", "site": "nantucketboatbasin.com/?ut...", "longitude": "-70.093299865723"},
{"latitude": "26.776699066162", "site": "sailfishmarina.com", "longitude": "-80.039398193359"},
{"latitude": "58.534442901611", "name": "Saaremaa Harbour", "longitude": "22.234443664551", "site": "portoftallinn.com/saaremaa..."},
{"latitude": "25.919200897217", "site": "http://calusaislandmarina.com", "longitude": "-81.650802612305"},
{"latitude": "59.435001373291", "name": "Old City Marina", "longitude": "24.751667022705", "site": "portoftallinn.com/old-city..."},
{"latitude": "26.543300628662", "site": "capecoral.net/Government/P...", "longitude": "-81.949798583984"},
{"latitude": "32.787200927734", "site": "charlestonharbormarina.com", "longitude": "-79.909400939941"},
{"latitude": "27.511699676514", "site": "http://rivieradunesmarina.org", "longitude": "-82.558898925781"},
{"latitude": "52.266101837158", "name": "Cheekpoint Marina", "longitude": "-6.9963898658752"},
{"latitude": "54.62670135498", "name": "Cladnageragh Harbour", "longitude": "-8.6244401931763"},
{"latitude": "38.67610168457", "site": "campbellsboatyards.com", "longitude": "-76.170303344727"},
{"latitude": "39.265300750732", "site": "mearsgreatoaklanding.com", "longitude": "-76.203300476074"},
{"latitude": "51.528099060059", "name": "Castletownsend Quay", "longitude": "-9.1724996566772"},
{"latitude": "53.348899841309", "name": "Carna Pier", "longitude": "-9.8827800750732"},
{"latitude": "54.043098449707", "name": "Carlingford Quay", "longitude": "-6.1861100196838"},
{"latitude": "52.601100921631", "name": "Carrigaholt New Quay", "longitude": "-9.6988897323608"},
{"latitude": "54.042198181152", "name": "Carlingford Pier", "longitude": "-6.1802802085876"},
{"latitude": "53.209201812744", "name": "Carrowmore Quay", "longitude": "-8.960280418396"},
{"latitude": "51.696899414062", "name": "Castlepark Marina", "longitude": "-8.5183296203613"},
{"latitude": "53.266101837158", "name": "Caraveg Point Quay", "longitude": "-9.6547203063965"},
{"latitude": "51.946701049805", "name": "Cahersiveen Marina", "longitude": "-10.233300209045", "site": "cahersiveenmarina.ie/index..."},
{"latitude": "53.171699523926", "name": "Bush Quay", "longitude": "-8.9691696166992"},
{"latitude": "51.850601196289", "name": "Blackwaterbridge Quay", "longitude": "-9.7466697692871"},
{"latitude": "51.778900146484", "name": "Bunaw Quay", "longitude": "-9.8063898086548"},
{"latitude": "54.099998474121", "name": "Blacksod Pier", "longitude": "-10.059399604797"},
{"latitude": "55.300598144531", "name": "Bunagee Pier", "longitude": "-7.1544399261475"},
{"latitude": "54.216400146484", "name": "Belmullet Quay", "longitude": "-9.9875001907349"},
{"latitude": "54.051399230957", "name": "Carlingford Marina", "longitude": "-6.1897201538086", "site": "carlingfordmarina.ie/"},
{"latitude": "54.101898193359", "name": "Blacksod Dock", "longitude": "-10.067799568176"},
{"latitude": "55.058601379395", "name": "Bunbeg Harbour", "longitude": "-8.3097200393677", "site": "anbunbeag.com/Html/Home.htm"},
{"latitude": "53.248901367188", "name": "Barna Quay", "longitude": "-9.1502799987793"},
{"latitude": "54.193099975586", "name": "Binghamstown Quay", "longitude": "-10.039199829102"},
{"latitude": "51.482498168945", "name": "Baltimore Harbour", "longitude": "-9.3738899230957"},
{"latitude": "53.118099212646", "name": "Ballyvaughan Pier", "longitude": "-9.1622200012207"},
{"latitude": "55.371101379395", "name": "Ballyhillin Quay", "longitude": "-7.3338899612427"},
{"latitude": "51.826698303223", "name": "Ballycotton Harbour", "longitude": "-8.0019397735596"},
{"latitude": "54.132499694824", "name": "Ballina Quay", "longitude": "-9.1377801895142"},
{"latitude": "53.122200012207", "name": "Ballyvaughan Quay", "longitude": "-9.1486101150513"},
{"latitude": "53.301399230957", "name": "Ardmore Quay", "longitude": "-9.7752799987793"},
{"latitude": "52.796398162842", "name": "Arklow Marina", "longitude": "-6.1472201347351", "site": "arklowmarina.com"},
{"latitude": "53.586399078369", "name": "Abbeyschrule", "longitude": "-7.6552801132202"},
{"latitude": "51.598899841309", "name": "Ahakista Quay", "longitude": "-9.6311101913452"},
{"latitude": "51.715301513672", "name": "Ballycrovane Harbour", "longitude": "-9.9527797698975"},
{"latitude": "54.253601074219", "name": "Ballyglass Pier", "longitude": "-9.8927803039551"},
{"latitude": "52.137798309326", "name": "Ballydavid Pier", "longitude": "-10.276100158691"},
{"latitude": "41.494400024414", "site": "conanicutmarina.com", "longitude": "-71.366897583008"},
{"latitude": "43.668598175049", "name": "Celeiro Viveiro Marina", "longitude": "-7.5936098098755"},
{"latitude": "26.674299240112", "site": "treasurecay.com", "longitude": "-77.280502319336"},
{"latitude": "32.39640045166", "site": "portroyallandingmarina.com", "longitude": "-80.679397583008"},
{"latitude": "27.149200439453", "site": "hinckleyyachts.com", "longitude": "-80.192497253418"},
{"latitude": "41.485801696777", "site": "newportyachtingcenter.com", "longitude": "-71.316398620605"},
{"latitude": "32.805587768555", "name": "Shavit Marina", "longitude": "35.029319763184"},
{"latitude": "39.092700958252", "site": "atlanticmarinaresort.com", "longitude": "-76.467796325684"},
{"latitude": "26.909400939941", "longitude": "-80.084999084473"},
{"latitude": "35.909729003906", "site": "townofmanteo.com", "longitude": "-75.668762207031"},
{"latitude": "25.729000091553", "site": "biminibayresort.com", "longitude": "-79.294700622559"},
{"latitude": "26.460557937622", "site": "http://pinkshell.com/", "longitude": "-81.964385986328"},
{"latitude": "41.694400787354", "name": "Viana do Castelo Marina", "longitude": "-8.8180599212646"},
{"latitude": "51.601898193359", "name": "Colijnsplaat Marina", "longitude": "3.8477799892426"},
{"latitude": "39.333301544189", "site": "chesapeakeyachting.com", "longitude": "-76.401100158691"},
{"latitude": "51.19889831543", "name": "Camping Hatenboer Yacht Harbour", "longitude": "5.9691700935364"},
{"latitude": "51.205799102783", "name": "Camp Hermans Yacht Harbour", "longitude": "5.9763898849487"},
{"latitude": "51.674198150635", "name": "Burghsluis Harbour", "longitude": "3.7544400691986"},
{"latitude": "51.665298461914", "name": "Bruinisse Yachtharbor", "longitude": "4.0911102294922"},
{"latitude": "53.243099212646", "name": "Briltil Yacht Harbour", "longitude": "6.3891701698303"},
{"latitude": "52.69889831543", "name": "Buyshaven Yacht Harbour", "longitude": "5.2866702079773"},
{"latitude": "51.726100921631", "name": "Brouwershaven Marina", "longitude": "3.9152801036835"},
{"latitude": "51.752201080322", "name": "Brouwersdam Road Marina", "longitude": "3.835000038147"},
{"latitude": "53.187198638916", "name": "Burgummerdaam Yacht Harbour", "longitude": "5.9922199249268"},
{"latitude": "53.044700622559", "name": "Brakel Watersport Marina", "longitude": "5.7811098098755"},
{"latitude": "51.395599365234", "name": "Breskens Marina", "longitude": "3.5699999332428"},
{"latitude": "52.414398193359", "name": "Bremerbergse Hoek Yacht Club", "longitude": "5.7438898086548"},
{"latitude": "51.668300628662", "name": "Boxmeer Marina", "longitude": "5.9558300971985"},
{"latitude": "52.358898162842", "name": "Bovendiep Yacht Harbour", "longitude": "4.9686098098755"},
{"latitude": "52.252799987793", "name": "Bon Yachtharbor", "longitude": "4.9491701126099", "site": "jachthavenbon.nl"},
{"latitude": "52.33390045166", "name": "Bolhaven Marina", "longitude": "5.5505599975586"},
{"latitude": "52.186698913574", "name": "BCL Boat Central Loosdrecht", "longitude": "5.0855598449707"},
{"latitude": "51.222499847412", "name": "Ascloa Yacht Harbour", "longitude": "6.0119400024414"},
{"latitude": "52.330600738525", "name": "Bonshaven Marina", "longitude": "5.5502800941467"},
{"latitude": "51.622501373291", "name": "BenedensasYactharbor", "longitude": "4.2605600357056"},
{"latitude": "51.804698944092", "name": "Blinckvliet Yacht Haven", "longitude": "4.2627801895142", "site": "blinckvliet.nl"},
{"latitude": "51.517200469971", "name": "Bastiaan De Langeplaat Yacht Harbour", "longitude": "3.7113900184631"},
{"latitude": "51.522201538086", "name": "Arneplaat Marina", "longitude": "3.6927800178528"},
{"latitude": "51.226100921631", "name": "Ascloa Yacht Harbour", "longitude": "6.0100002288818"},
{"latitude": "52.258098602295", "name": "Arkersluis Marina", "longitude": "5.4655599594116"},
{"latitude": "52.561401367188", "name": "Alkmaarse Yacht Harbour", "longitude": "4.7408299446106"},
{"latitude": "51.495800018311", "name": "Alexanderhaven Yacht Harbour", "longitude": "4.0538902282715"},
{"latitude": "52.563899993896", "name": "Akersloot Yacht Harbour", "longitude": "4.7391700744629"},
{"latitude": "53.324699401855", "name": "Abel Tasman Yacht Haven", "longitude": "6.9225001335144"},
{"latitude": "52.305801391602", "name": "Weesp Watersport", "longitude": "5.022500038147"},
{"latitude": "52.33219909668", "name": "Almere-Haven Marina", "longitude": "5.2183299064636", "site": "wsvalmerehaven.nl/"},
{"latitude": "51.744998931885", "name": "Ammerzoden Yachtharbor and Boatyard", "longitude": "5.2224998474121"},
{"latitude": "52.336399078369", "name": "KNZRV Yachtharbor", "longitude": "5.0688900947571"},
{"latitude": "51.559700012207", "name": "Arne Marina", "longitude": "3.6452798843384"},
{"latitude": "38.521900177002", "name": "Setubal Marina", "longitude": "-8.8861103057861"},
{"latitude": "38.438598632812", "name": "Sesimbra Marina", "longitude": "-9.1130599975586", "site": "naval-sesimbra.pt/work/mar..."},
{"latitude": "37.953098297119", "name": "Sines Leisure Port", "longitude": "-8.8686103820801", "site": "portodesines.pt"},
{"latitude": "39.353099822998", "name": "Peniche Marina", "longitude": "-9.376669883728"},
{"latitude": "39.581901550293", "name": "Nazare Marina", "longitude": "-9.0725002288818"},
{"latitude": "38.676898956299", "name": "Oeiras Marina", "longitude": "-9.3152799606323"},
{"latitude": "38.741901397705", "name": "Marvila Marina", "longitude": "-9.1066703796387"},
{"latitude": "38.755798339844", "name": "Marina Parque das Nacoes", "longitude": "-9.0938901901245", "site": "marinaparquedasnacoes.pt/en"},
{"latitude": "40.645801544189", "name": "Porto de Aveiro", "longitude": "-8.7016696929932"},
{"latitude": "37.024700164795", "name": "", "longitude": "-7.8355598449707"},
{"latitude": "41.373600006104", "name": "Marina da Povoa de Varzim", "longitude": "-8.7655601501465", "site": "marinadapovoa.com"},
{"latitude": "38.49333190918", "name": "Marina de Troia, S.A.", "longitude": "-8.9033327102661", "site": "troiaresort.pt/gca/index.p..."},
{"latitude": "38.69469833374", "name": "Doca De Paco Arcos Marina", "longitude": "-9.2838897705078"},
{"latitude": "41.180599212646", "name": "Leixoes Marina", "longitude": "-8.710000038147"},
{"latitude": "41.142223358154", "name": "Douro Marina", "longitude": "-8.6494445800781", "site": "douromarina.com"},
{"latitude": "37.074199676514", "name": "Marina de Vilamoura", "longitude": "-8.124719619751", "site": "marinadevilamoura.com"},
{"latitude": "37.114700317383", "name": "", "longitude": "-8.5286102294922", "site": "marinadeportimao.com.pt"},
{"latitude": "38.693599700928", "name": "Doca De Bom Sucesso", "longitude": "-9.2136096954346"},
{"latitude": "38.693298339844", "name": "Cascais Marina", "longitude": "-9.4144401550293"},
{"latitude": "37.193901062012", "name": "Deportivo Del Guadiana Marina", "longitude": "-7.4141697883606"},
{"latitude": "38.69469833374", "name": "Alges Marina", "longitude": "-9.227219581604"},
{"latitude": "38.696098327637", "name": "Doca De Belem Marina", "longitude": "-9.2049999237061"},
{"latitude": "38.697200775146", "name": "Alcantara Marina", "longitude": "-9.1747198104858"},
{"latitude": "37.083599090576", "name": "Marina de Albufeira", "longitude": "-8.2647199630737", "site": "marinaalbufeira.com/"},
{"latitude": "40.14469909668", "name": "Fugeira Da Foz Marina", "longitude": "-8.8616695404053"},
{"latitude": "38.69889831543", "name": "Doca De Alcantara Marina", "longitude": "-9.1661100387573"},
{"latitude": "38.710300445557", "name": "Alfama Marina", "longitude": "-9.1219396591187"},
{"latitude": "37.104698181152", "name": "Marina de Lagos", "longitude": "-8.6722202301025", "site": "marinadelagos.pt"},
{"latitude": "37.013301849365", "name": "Faro Marina", "longitude": "-7.9363899230957"},
{"latitude": "23.504199981689", "name": "Exuma Markets Dinghy Dock", "longitude": "-75.769401550293"},
{"latitude": "23.471900939941", "name": "Exuma Boatyard", "longitude": "-75.74690246582"},
{"latitude": "26.595300674438", "name": "Edwin's Boat Yard #2", "longitude": "-77.006301879883"},
{"latitude": "26.596700668335", "name": "Edwin's Boat Yard #1", "longitude": "-77.007698059082"},
{"latitude": "24.737800598145", "name": "Davis Harbour Marina", "longitude": "-76.234199523926", "site": "http://cottonbayeleuthera.com"},
{"latitude": "26.77499961853", "name": "Dolphin Marine", "longitude": "-77.335601806641"},
{"latitude": "24.053300857544", "name": "Cockburn Town Dock", "longitude": "-74.536697387695"},
{"latitude": "23.103099822998", "name": "Clarence Town Dock", "longitude": "-74.961898803711"},
{"latitude": "25.41189956665", "name": "Chub Cay Club Marina", "longitude": "-77.903297424316", "site": "chubcay.com"},
{"latitude": "24.260000228882", "name": "Compass Cay Marina", "longitude": "-76.513298034668", "site": "compasscaymarina.com"},
{"latitude": "25.075300216675", "name": "East Bay Yatch Basin", "longitude": "-77.321998596191"},
{"latitude": "26.546800613403", "name": "Conch Inn Marina & Hotel", "longitude": "-77.052299499512", "site": "go-abacos.com/conchinn/con..."},
{"latitude": "25.554399490356", "name": "Cat Cay Marina", "longitude": "-79.275001525879"},
{"latitude": "24.436100006104", "name": "Coconut Cove Marina", "longitude": "-76.731903076172"},
{"latitude": "24.836700439453", "name": "Cape Eleuthera Resort & Yacht Club", "longitude": "-76.341102600098", "site": "capeeleuthera.com"},
{"latitude": "25.722499847412", "name": "Browns Marina & BIG JOHN'S Hotel & Conch Shell Bar", "longitude": "-79.299797058105", "site": "BrownsHotelandMarina.com"},
{"latitude": "25.075199127197", "name": "Brown's Boat Basin", "longitude": "-77.315200805664"},
{"latitude": "26.519800186157", "name": "Bradford Grand Bahama", "longitude": "-78.75700378418", "site": "bradford-grand-bahama.com/..."},
{"latitude": "26.777000427246", "name": "Bluff House Yacht Club & Marina", "longitude": "-77.338996887207", "site": "bluffhouse.com"},
{"latitude": "24.72439956665", "name": "Chickcharnies Hotel & Restaurant", "longitude": "-77.786697387695"},
{"latitude": "25.708299636841", "name": "Bimini Sands Resort & Marina", "longitude": "-79.298599243164"},
{"latitude": "26.65060043335", "name": "Blue Marlin Cove", "longitude": "-78.943199157715", "site": "bluemarlincove.com"},
{"latitude": "25.691900253296", "name": "Bimini Beach Club & Marina", "longitude": "-79.30419921875"},
{"latitude": "25.075300216675", "name": "Bayshore Marina", "longitude": "-77.316200256348"},
{"latitude": "23.446899414062", "name": "Alligator Bay Marina", "longitude": "-75.229202270508"},
{"latitude": "26.760499954224", "name": "Black Sound Marina", "longitude": "-77.324798583984", "site": "http://blacksoundmarinagreenturtle.com"},
{"latitude": "-36.839900970459", "name": "Westhaven Marina", "longitude": "174.74380493164", "site": "westhaven.co.nz"},
{"latitude": "25.722799301147", "name": "Bimini Government Dock", "longitude": "-79.298896789551"},
{"latitude": "25.724199295044", "name": "Bimini Blue Water Resort", "longitude": "-79.29810333252"},
{"latitude": "26.543800354004", "name": "Abaco Beach Resort & Boat Harbour", "longitude": "-77.04630279541", "site": "http:///www.abacobeachresort.com"},
{"latitude": "26.515300750732", "name": "Bell Channel Club & Marina", "longitude": "-78.656700134277", "site": "caribpro.com/bellchannel/"},
{"latitude": "26.541975021362", "name": "Abaco Outboard Engines", "longitude": "-77.069755554199", "site": "go-abacos.com/aoe/index.html"},
{"latitude": "26.764699935913", "name": "Abaco Yacht Services", "longitude": "-77.325698852539", "site": "go-abacos.com/ays/ays.html"},
{"latitude": "24.166667938232", "name": "Club de Yates Palmira", "longitude": "-110.30000305176", "site": "marinapalmira.com"},
{"latitude": "19.199533462524", "name": "Marina Isla Navidad", "longitude": "-104.68851470947", "site": "islanavidad.com.mx"},
{"latitude": "23.21669960022", "site": "elcid.com", "longitude": "-106.41000366211"},
{"latitude": "25.392189025879", "name": "Lusail Marina", "longitude": "51.529815673828"},
{"latitude": "25.314199447632", "name": "Dubai Marina Yacht Club", "longitude": "55.356700897217", "site": "dubaimarinayachtclub.com"},
{"latitude": "25", "name": "Dubai Creek Golf & Yacht Club", "longitude": "55", "site": "dubaigolf.com"},
{"latitude": "29.324167251587", "name": "Four Seasons Marina Doha", "longitude": "32.468612670898", "site": "mourjanmarinas.com/marinas..."},
{"latitude": "25", "name": "Al Hamra Yacht Club & Marina", "longitude": "55", "site": "alhamramarina.com"},
{"latitude": "60.418098449707", "name": "Bergen Fritid And Messesenter", "longitude": "5.310830116272"},
{"latitude": "23.631944656372", "name": "Almouj Marina", "longitude": "58.267501831055", "site": "mourjanmarinas.com/marinas..."},
{"latitude": "23.821939468384", "name": "Mussanah Marina", "longitude": "57.535572052002", "site": "omansail.com"},
{"latitude": "60.39640045166", "name": "Bergen Guest Harbour", "longitude": "5.3302798271179"},
{"latitude": "63.872501373291", "name": "Aursoy Yacht Harbour", "longitude": "8.6391696929932"},
{"latitude": "60.38330078125", "name": "Bergen East Marina", "longitude": "5.3522200584412"},
{"latitude": "58.074401855469", "name": "Ausvika Yacht Harbour", "longitude": "7.7711100578308"},
{"latitude": "25.221332550049", "name": "Festival Marina", "longitude": "55.35033416748"},
{"latitude": "62.795299530029", "name": "Aukra Marina", "longitude": "6.9099998474121"},
{"latitude": "59.080299377441", "name": "Asmaloey Marina", "longitude": "10.93719959259"},
{"latitude": "60.402198791504", "name": "Askoy Boat Yard", "longitude": "5.1886100769043"},
{"latitude": "60.405601501465", "name": "Askoy Marina", "longitude": "5.2347202301025"},
{"latitude": "60.416400909424", "name": "Askoy East Marina", "longitude": "5.2413902282715"},
{"latitude": "62.564998626709", "name": "Andalsnes Marina", "longitude": "7.6688899993896"},
{"latitude": "69.976898193359", "name": "Alta Flytekai Marina", "longitude": "23.329399108887"},
{"latitude": "58.971698760986", "name": "Badedammen Marina", "longitude": "5.7477798461914"},
{"latitude": "62.567501068115", "name": "Andalsnes Guest Harbour", "longitude": "7.689169883728"},
{"latitude": "69.971900939941", "name": "Alta Elvebakken Yacht Harbour", "longitude": "23.383600234985"},
{"latitude": "58.11190032959", "name": "", "longitude": "7.984169960022", "site": "andoya-vel.no/bathavn.htm"},
{"latitude": "69.97859954834", "name": "Alta Bullkaien", "longitude": "23.302499771118", "site": "altahavn.no/"},
{"latitude": "70.284202575684", "name": "Arctic Ostre Kai", "longitude": "31.001100540161"},
{"latitude": "69.971702575684", "name": "", "longitude": "23.239200592041", "site": "altabf.no"},
{"latitude": "62.472499847412", "name": "Alesund Yacht Harbour", "longitude": "6.1497201919556"},
{"latitude": "69.97029876709", "name": "Arctic Products Kiberg", "longitude": "29.652500152588"},
{"latitude": "62.468299865723", "name": "Alesund Notholmen Marina", "longitude": "6.1133298873901"},
{"latitude": "62.471099853516", "name": "Alesund Magdevag Yacht Yard", "longitude": "6.2186098098755"},
{"latitude": "62.470001220703", "name": "Alesund Kipervik Harbour", "longitude": "6.1608300209045"},
{"latitude": "62.474201202393", "name": "Alesund Town Harbour", "longitude": "6.1516699790955"},
{"latitude": "62.468601226807", "name": "Alesund Sunnmore Yacht Harbour", "longitude": "6.2347202301025"},
{"latitude": "62.469200134277", "name": "Alesund Norvevika Yacht Harbour", "longitude": "6.2083301544189"},
{"latitude": "63.58219909668", "name": "Akervika Marina", "longitude": "9.5219402313232"},
{"latitude": "62.469200134277", "name": "Alesund Norvevika Marina", "longitude": "6.2058300971985"},
{"latitude": "62.472499847412", "name": "Alesund Fishing Harbour", "longitude": "6.1547198295593"},
{"latitude": "62.468299865723", "name": "Alesund Aspoya Marina", "longitude": "6.1283302307129"},
{"latitude": "62.472198486328", "name": "Alesund Brosundet Marina", "longitude": "6.1541700363159"},
{"latitude": "58.295600891113", "name": "Flekkefjord Eschebrygga Yacht Harbour", "longitude": "6.6577801704407"},
{"latitude": "63.505001068115", "name": "Agdenes Yacht Harbour", "longitude": "9.8472204208374"},
{"latitude": "62.47029876709", "name": "Alesund Norvevika Fishing Harbour", "longitude": "6.2119398117065"},
{"latitude": "58.611099243164", "name": "Anras Alven Yacht Harbour", "longitude": "11.290300369263"},
{"latitude": "59.842498779297", "name": "Arholma Marina", "longitude": "19.126899719238"},
{"latitude": "58.033100128174", "name": "Angeviken Marina", "longitude": "11.502499580383"},
{"latitude": "58.802200317383", "name": "Ankarudden Fiskehamn Marina", "longitude": "17.836099624634"},
{"latitude": "31.885299682617", "site": "fortmcallistermarinaga.com", "longitude": "-81.207496643066"},
{"latitude": "57.666698455811", "name": "Angholmen Yacht Harbour", "longitude": "11.843899726868"},
{"latitude": "56.337200164795", "name": "Angelsbeak Marina", "longitude": "12.715000152588"},
{"latitude": "59.961101531982", "name": "Angelsberg Marina", "longitude": "16.002199172974"},
{"latitude": "59.037799835205", "name": "Amal Nasgatan Road Marina", "longitude": "12.718600273132"},
{"latitude": "59.394401550293", "name": "Arboga Marina", "longitude": "15.851099967957"},
{"latitude": "56.270000457764", "name": "Angelholm Port", "longitude": "12.86279964447"},
{"latitude": "58.569400787354", "name": "Amdal Yacht Harbour", "longitude": "11.286100387573"},
{"latitude": "58.065299987793", "name": "Almosund Road Outer Marina", "longitude": "11.753600120544"},
{"latitude": "58.06420135498", "name": "Almoesund Road Inner Marina", "longitude": "11.758600234985"},
{"latitude": "58.062801361084", "name": "Almoesund Road Middle Marina", "longitude": "11.753100395203"},
{"latitude": "59.053901672363", "name": "Amal Yacht Marina", "longitude": "12.707500457764"},
{"latitude": "59.458599090576", "name": "Akersberga Road Marina", "longitude": "18.278600692749"},
{"latitude": "59.04940032959", "name": "Amal Djuphamnen Marina", "longitude": "12.710800170898"},
{"latitude": "59.240001678467", "name": "Alby Marina", "longitude": "17.865600585938"},
{"latitude": "59.270000457764", "name": "Aengsvik Road Marina", "longitude": "17.771699905396"},
{"latitude": "60.493900299072", "name": "Aengskaersklubb Marina", "longitude": "18.067199707031"},
{"latitude": "61.545600891113", "name": "Agoen Marina", "longitude": "17.39109992981"},
{"latitude": "59.184700012207", "name": "Aengsudden Road Marina", "longitude": "18.380300521851"},
{"latitude": "59.48690032959", "name": "Aengsholmen Road Marina", "longitude": "17.656400680542"},
{"latitude": "60.628299713135", "name": "Aelvskaer Road Marina", "longitude": "17.440299987793"},
{"latitude": "59.302200317383", "name": "Aarsta Smaabaatshamn Marina", "longitude": "18.072799682617"},
{"latitude": "59.080600738525", "name": "Aarsta Havsbad Marina", "longitude": "18.158100128174"},
{"latitude": "59.081401824951", "name": "Aarsta Brygga Marina", "longitude": "18.173099517822"},
{"latitude": "55.393299102783", "name": "Abbekas Marina", "longitude": "13.600600242615"},
{"latitude": "59.318599700928", "name": "Aalsten Smaabaatshamn Marina", "longitude": "17.943899154663"},
{"latitude": "59.468898773193", "name": "Aalsta Road Marina", "longitude": "17.678300857544"},
{"latitude": "58.896701812744", "name": "Aamhaellarna Road Marina", "longitude": "17.944999694824"},
{"latitude": "59.358898162842", "name": "Adelsoe Marina", "longitude": "17.537200927734"},
{"latitude": "55.916400909424", "name": "Aahus Marina", "longitude": "14.303099632263"},
{"latitude": "56.229400634766", "name": "Aasnacken Hamnen Road Marina", "longitude": "12.721099853516"},
{"latitude": "58.862201690674", "name": "Aammeberg Tomteviken Marina", "longitude": "14.993599891663"},
{"latitude": "-33.026668548584", "name": "Yachtport SA", "longitude": "17.960832595825", "site": "yachtportsa.co.za"},
{"latitude": "9.3343334197998", "name": "Bocas Marina", "longitude": "-82.241333007812", "site": "http://bocasmarina.com"},
{"latitude": "39.969398498535", "name": "Castellon Marina", "longitude": "0.01611110009253"},
{"latitude": "29.917699813843", "site": "camacheeisland.com", "longitude": "-81.308601379395"},
{"latitude": "37.909198760986", "name": "Cape Roig Marina", "longitude": "-0.72694402933121", "site": "marinacaboroig.com"},
{"latitude": "37.632801055908", "name": "Cape of Palos Marina", "longitude": "-0.70138901472092"},
{"latitude": "43.589199066162", "name": "Candas Marina", "longitude": "-5.7616701126099"},
{"latitude": "41.063098907471", "name": "Cambrils Marina", "longitude": "1.0597200393677"},
{"latitude": "43.125598907471", "name": "Camarinas Marina", "longitude": "-9.1827802658081"},
{"latitude": "38.430801391602", "name": "Campello Marina", "longitude": "-0.38472199440002"},
{"latitude": "39.877201080322", "name": "Cala Font Marina", "longitude": "4.2961101531982"},
{"latitude": "36.747200012207", "name": "Caleta De Velez Marina", "longitude": "-4.0663900375366"},
{"latitude": "39.883098602295", "name": "Cala Llonga Marina", "longitude": "4.2980599403381"},
{"latitude": "38.63809967041", "name": "Calpe Marina", "longitude": "0.072777800261974"},
{"latitude": "39.369400024414", "name": "Cala D'Or Marina", "longitude": "3.2230598926544", "site": "marinacalador.es"},
{"latitude": "39.928901672363", "name": "Cala En Bosc Marina", "longitude": "3.8341701030731"},
{"latitude": "36.491401672363", "name": "Cabopino Marina", "longitude": "-4.7430601119995"},
{"latitude": "42.313899993896", "name": "Bueu Marina", "longitude": "-8.7930603027344"},
{"latitude": "41.680801391602", "name": "Blanes Marina", "longitude": "2.8077800273895"},
{"latitude": "42.226398468018", "name": "", "longitude": "-8.7563896179199", "site": "marinerosbouzas.com"},
{"latitude": "39.864398956299", "name": "Burriana Marina", "longitude": "-0.066944397985935"},
{"latitude": "40.413101196289", "name": "Benicarlo Marina", "longitude": "0.4327780008316", "site": "marinabenicarlo.com/"},
{"latitude": "42.26309967041", "name": "Astilleros Y Construcciones Lagoa", "longitude": "-8.6811103820801"},
{"latitude": "38.536098480225", "name": "Benidorm Marina", "longitude": "-0.13388900458813"},
{"latitude": "39.861698150635", "name": "Barranco Del Rey Marina", "longitude": "4.3027801513672"},
{"latitude": "43.412200927734", "name": "Ares Marina", "longitude": "-8.2413902282715"},
{"latitude": "38.596099853516", "name": "Altea Marina", "longitude": "-0.04388890042901"},
{"latitude": "40.05530166626", "name": "Bahia De Fornells Marina", "longitude": "4.1286101341248"},
{"latitude": "40.074401855469", "name": "Oropesa del Mar", "longitude": "0.1333329975605", "site": "cnoropesa.com"},
{"latitude": "42.60359954834", "name": "A Pobra Do Caraminal Marina", "longitude": "-8.9366703033447"},
{"latitude": "38.913600921631", "name": "Ibiza Nueva Marina", "longitude": "1.4455599784851"},
{"latitude": "42.375598907471", "name": "Aguete Marina", "longitude": "-8.7322196960449"},
{"latitude": "43.544399261475", "name": "Gijon Marina", "longitude": "-5.6683301925659"},
{"latitude": "37.212501525879", "name": "Ayamonte Marina", "longitude": "-7.4061098098755"},
{"latitude": "39.33219909668", "name": "Cala Figuera Marina", "longitude": "3.1680600643158"},
{"latitude": "42.226398468018", "name": "Agrupacion Nautica San Gregorio Marina", "longitude": "-8.7466697692871"},
{"latitude": "42.264999389648", "name": "Albatros Marina", "longitude": "-8.6788902282715"},
{"latitude": "24.560024261475", "site": "keywestcity.com", "longitude": "-81.784393310547"},
{"latitude": "11.178099632263", "name": "Scarborough Town Marina", "longitude": "-60.733100891113"},
{"latitude": "38.328601837158", "site": "ocsunsetmarina.com", "longitude": "-75.104400634766"},
{"latitude": "38.893299102783", "site": "rhoderivermarina.com", "longitude": "-76.525299072266"},
{"latitude": "38.972499847412", "site": "mearspoint.com", "longitude": "-76.245002746582"},
{"latitude": "41.487499237061", "site": "newporthotel.com", "longitude": "-71.316902160645"},
{"latitude": "38.693199157715", "site": "http://campbellsboatyards.com", "longitude": "-76.167129516602"},
{"latitude": "38.955799102783", "site": "chesapeakeharbourmarina.com", "longitude": "-76.472503662109"}
]}
